{"type":"FeatureCollection", "features": [
{"type":"Feature","geometry":null,"properties":{"name":"Executive State House","address":"125 W State St, Trenton, NJ 08608, EE. UU.","description":{"@type":"html","value":"Type: Owned<br>Address: 125 W State St, Trenton, NJ 08608, EE. UU."},"styleUrl":"#icon-1899-3949AB","icon-scale":1,"icon-offset":[32,64],"icon-offset-units":["pixels","insetPixels"],"icon":"images/icon-1.png","Type":"Owned","Address":"125 W State St, Trenton, NJ 08608, EE. UU."}},
{"type":"Feature","geometry":null,"properties":{"name":"Legislative State house","address":"125 W State St, Trenton, NJ 08608, EE. UU.","description":{"@type":"html","value":"Type: Owned<br>Address: 125 W State St, Trenton, NJ 08608, EE. UU."},"styleUrl":"#icon-1899-3949AB","icon-scale":1,"icon-offset":[32,64],"icon-offset-units":["pixels","insetPixels"],"icon":"images/icon-1.png","Type":"Owned","Address":"125 W State St, Trenton, NJ 08608, EE. UU."}},
{"type":"Feature","geometry":null,"properties":{"name":"NJ State House Annex","address":"131-137 W State St, Trenton, NJ 08608, EE. UU.","description":{"@type":"html","value":"Type: Owned<br>Address: 131-137 W State St, Trenton, NJ 08608, EE. UU."},"styleUrl":"#icon-1899-3949AB","icon-scale":1,"icon-offset":[32,64],"icon-offset-units":["pixels","insetPixels"],"icon":"images/icon-1.png","Type":"Owned","Address":"131-137 W State St, Trenton, NJ 08608, EE. UU."}},
{"type":"Feature","geometry":null,"properties":{"name":"NJ State Library","address":"185 W State St, Trenton, NJ 08608, EE. UU.","description":{"@type":"html","value":"Type: Owned<br>Address: 185 W State St, Trenton, NJ 08608, EE. UU."},"styleUrl":"#icon-1899-3949AB","icon-scale":1,"icon-offset":[32,64],"icon-offset-units":["pixels","insetPixels"],"icon":"images/icon-1.png","Type":"Owned","Address":"185 W State St, Trenton, NJ 08608, EE. UU."}},
{"type":"Feature","geometry":null,"properties":{"name":"NJ State Planetarium","address":"205 W State St, Trenton, NJ 08608, EE. UU.","description":{"@type":"html","value":"Type: Owned<br>Address: 205 W State St, Trenton, NJ 08608, EE. UU."},"styleUrl":"#icon-1899-3949AB","icon-scale":1,"icon-offset":[32,64],"icon-offset-units":["pixels","insetPixels"],"icon":"images/icon-1.png","Type":"Owned","Address":"205 W State St, Trenton, NJ 08608, EE. UU."}},
{"type":"Feature","geometry":null,"properties":{"name":"NJ State Museum","address":"205 W State St, Trenton, NJ 08608, EE. UU.","description":{"@type":"html","value":"Type: Owned<br>Address: 205 W State St, Trenton, NJ 08608, EE. UU."},"styleUrl":"#icon-1899-3949AB","icon-scale":1,"icon-offset":[32,64],"icon-offset-units":["pixels","insetPixels"],"icon":"images/icon-1.png","Type":"Owned","Address":"205 W State St, Trenton, NJ 08608, EE. UU."}},
{"type":"Feature","geometry":null,"properties":{"name":"NJ State Auditorium","address":"215 W State St, Trenton, NJ 08608, EE. UU.","description":{"@type":"html","value":"Type: Owned<br>Address: 215 W State St, Trenton, NJ 08608, EE. UU."},"styleUrl":"#icon-1899-3949AB","icon-scale":1,"icon-offset":[32,64],"icon-offset-units":["pixels","insetPixels"],"icon":"images/icon-1.png","Type":"Owned","Address":"215 W State St, Trenton, NJ 08608, EE. UU."}},
{"type":"Feature","geometry":null,"properties":{"name":"225 West State Street","address":"225 West State Street, Trenton, NJ 08608, EE. UU.","description":{"@type":"html","value":"Type: Owned<br>Address: 225 West State Street, Trenton, NJ 08608, EE. UU."},"styleUrl":"#icon-1899-3949AB","icon-scale":1,"icon-offset":[32,64],"icon-offset-units":["pixels","insetPixels"],"icon":"images/icon-1.png","Type":"Owned","Address":"225 West State Street, Trenton, NJ 08608, EE. UU."}},
{"type":"Feature","geometry":null,"properties":{"name":"State Office Building","address":"135 W Hanover St, Trenton, NJ 08608, EE. UU.","description":{"@type":"html","value":"Type: Owned<br>Address: 135 W Hanover St, Trenton, NJ 08608, EE. UU."},"styleUrl":"#icon-1899-3949AB","icon-scale":1,"icon-offset":[32,64],"icon-offset-units":["pixels","insetPixels"],"icon":"images/icon-1.png","Type":"Owned","Address":"135 W Hanover St, Trenton, NJ 08608, EE. UU."}},
{"type":"Feature","geometry":null,"properties":{"name":"Taxation Building","address":"50 Barrack St, Trenton, NJ 08608, EE. UU.","description":{"@type":"html","value":"Type: Owned<br>Address: 50 Barrack St, Trenton, NJ 08608, EE. UU."},"styleUrl":"#icon-1899-3949AB","icon-scale":1,"icon-offset":[32,64],"icon-offset-units":["pixels","insetPixels"],"icon":"images/icon-1.png","Type":"Owned","Address":"50 Barrack St, Trenton, NJ 08608, EE. UU."}},
{"type":"Feature","geometry":null,"properties":{"name":"Mary Roebling Building","address":"20 W State St, Trenton, NJ 08608, EE. UU.","description":{"@type":"html","value":"Type: Owned<br>Address: 20 W State St, Trenton, NJ 08608, EE. UU."},"styleUrl":"#icon-1899-3949AB","icon-scale":1,"icon-offset":[32,64],"icon-offset-units":["pixels","insetPixels"],"icon":"images/icon-1.png","Type":"Owned","Address":"20 W State St, Trenton, NJ 08608, EE. UU."}},
{"type":"Feature","geometry":null,"properties":{"name":"Old Barracks Museum","address":"101 Barrack St, Trenton, NJ 08608, EE. UU.","description":{"@type":"html","value":"Type: Owned<br>Address: 101 Barrack St, Trenton, NJ 08608, EE. UU."},"styleUrl":"#icon-1899-3949AB","icon-scale":1,"icon-offset":[32,64],"icon-offset-units":["pixels","insetPixels"],"icon":"images/icon-1.png","Type":"Owned","Address":"101 Barrack St, Trenton, NJ 08608, EE. UU."}},
{"type":"Feature","geometry":null,"properties":{"name":"War Memorial Building","address":"1 Memorial Dr, Trenton, NJ 08608, EE. UU.","description":{"@type":"html","value":"Type: Owned<br>Address: 1 Memorial Dr, Trenton, NJ 08608, EE. UU."},"styleUrl":"#icon-1899-3949AB","icon-scale":1,"icon-offset":[32,64],"icon-offset-units":["pixels","insetPixels"],"icon":"images/icon-1.png","Type":"Owned","Address":"1 Memorial Dr, Trenton, NJ 08608, EE. UU."}},
{"type":"Feature","geometry":null,"properties":{"name":"William Ashby Building","address":"101 S Broad St, Trenton, NJ 08608, EE. UU.","description":{"@type":"html","value":"Type: Owned<br>Address: 101 S Broad St, Trenton, NJ 08608, EE. UU."},"styleUrl":"#icon-1899-3949AB","icon-scale":1,"icon-offset":[32,64],"icon-offset-units":["pixels","insetPixels"],"icon":"images/icon-1.png","Type":"Owned","Address":"101 S Broad St, Trenton, NJ 08608, EE. UU."}},
{"type":"Feature","geometry":null,"properties":{"name":"Labor and Industry Building","address":"1 John Fitch Way, Trenton, NJ 08608, EE. UU.","description":{"@type":"html","value":"Type: Owned<br>Address: 1 John Fitch Way, Trenton, NJ 08608, EE. UU."},"styleUrl":"#icon-1899-3949AB","icon-scale":1,"icon-offset":[32,64],"icon-offset-units":["pixels","insetPixels"],"icon":"images/icon-1.png","Type":"Owned","Address":"1 John Fitch Way, Trenton, NJ 08608, EE. UU."}},
{"type":"Feature","geometry":null,"properties":{"name":"Justice Complex","address":"25 W Market Street, Trenton, NJ 08608, EE. UU.","description":{"@type":"html","value":"Type: Owned<br>Address: 25 W Market Street, Trenton, NJ 08608, EE. UU."},"styleUrl":"#icon-1899-3949AB","icon-scale":1,"icon-offset":[32,64],"icon-offset-units":["pixels","insetPixels"],"icon":"images/icon-1.png","Type":"Owned","Address":"25 W Market Street, Trenton, NJ 08608, EE. UU."}},
{"type":"Feature","geometry":null,"properties":{"name":"Mill Hill Processing Center","address":"Mill Hill Processing Center, Trenton, NJ 08608, EE. UU.","description":{"@type":"html","value":"Type: Owned<br>Address: Mill Hill Processing Center, Trenton, NJ 08608, EE. UU."},"styleUrl":"#icon-1899-3949AB","icon-scale":1,"icon-offset":[32,64],"icon-offset-units":["pixels","insetPixels"],"icon":"images/icon-1.png","Type":"Owned","Address":"Mill Hill Processing Center, Trenton, NJ 08608, EE. UU."}},
{"type":"Feature","geometry":null,"properties":{"name":"Trenton Office Complex","address":"225 E State St, Trenton, NJ 08608, EE. UU.","description":{"@type":"html","value":"Type: Owned<br>Address: 225 E State St, Trenton, NJ 08608, EE. UU."},"styleUrl":"#icon-1899-3949AB","icon-scale":1,"icon-offset":[32,64],"icon-offset-units":["pixels","insetPixels"],"icon":"images/icon-1.png","Type":"Owned","Address":"225 E State St, Trenton, NJ 08608, EE. UU."}},
{"type":"Feature","geometry":null,"properties":{"name":"NJ Network Building","address":"25 S Stockton St, Trenton, NJ 08608, EE. UU.","description":{"@type":"html","value":"Type: Owned<br>Address: 25 S Stockton St, Trenton, NJ 08608, EE. UU."},"styleUrl":"#icon-1899-3949AB","icon-scale":1,"icon-offset":[32,64],"icon-offset-units":["pixels","insetPixels"],"icon":"images/icon-1.png","Type":"Owned","Address":"25 S Stockton St, Trenton, NJ 08608, EE. UU."}},
{"type":"Feature","geometry":null,"properties":{"name":"DEP Building","address":"401 E State St, Trenton, NJ 08608, EE. UU.","description":{"@type":"html","value":"Type: Owned<br>Address: 401 E State St, Trenton, NJ 08608, EE. UU."},"styleUrl":"#icon-1899-3949AB","icon-scale":1,"icon-offset":[32,64],"icon-offset-units":["pixels","insetPixels"],"icon":"images/icon-1.png","Type":"Owned","Address":"401 E State St, Trenton, NJ 08608, EE. UU."}},
{"type":"Feature","geometry":null,"properties":{"name":"State Document Control Ctr","address":"77 Carroll St, Trenton, NJ 08608, EE. UU.","description":{"@type":"html","value":"Type: Owned<br>Address: 77 Carroll St, Trenton, NJ 08608, EE. UU."},"styleUrl":"#icon-1899-3949AB","icon-scale":1,"icon-offset":[32,64],"icon-offset-units":["pixels","insetPixels"],"icon":"images/icon-1.png","Type":"Owned","Address":"77 Carroll St, Trenton, NJ 08608, EE. UU."}},
{"type":"Feature","geometry":null,"properties":{"name":"Treasury Print and Graphics Shop","address":"101 Carroll St, Trenton, NJ 08608, EE. UU.","description":{"@type":"html","value":"Type: Owned<br>Address: 101 Carroll St, Trenton, NJ 08608, EE. UU."},"styleUrl":"#icon-1899-3949AB","icon-scale":1,"icon-offset":[32,64],"icon-offset-units":["pixels","insetPixels"],"icon":"images/icon-1.png","Type":"Owned","Address":"101 Carroll St, Trenton, NJ 08608, EE. UU."}},
{"type":"Feature","geometry":null,"properties":{"name":"Capital Place One","address":"222 S Warren St, Trenton, NJ 08608, EE. UU.","description":{"@type":"html","value":"Type: Owned<br>Address: 222 S Warren St, Trenton, NJ 08608, EE. UU."},"styleUrl":"#icon-1899-3949AB","icon-scale":1,"icon-offset":[32,64],"icon-offset-units":["pixels","insetPixels"],"icon":"images/icon-1.png","Type":"Owned","Address":"222 S Warren St, Trenton, NJ 08608, EE. UU."}},
{"type":"Feature","geometry":null,"properties":{"name":"New Health Building","address":"55 N Willow St, Trenton, NJ 08608, EE. UU.","description":{"@type":"html","value":"Type: Owned<br>Address: 55 N Willow St, Trenton, NJ 08608, EE. UU."},"styleUrl":"#icon-1899-3949AB","icon-scale":1,"icon-offset":[32,64],"icon-offset-units":["pixels","insetPixels"],"icon":"images/icon-1.png","Type":"Owned","Address":"55 N Willow St, Trenton, NJ 08608, EE. UU."}},
{"type":"Feature","geometry":null,"properties":{"name":"New Taxation Building ","address":"3 John Fitch Way, Trenton, NJ 08608, EE. UU.","description":{"@type":"html","value":"Type: Owned<br>Address: 3 John Fitch Way, Trenton, NJ 08608, EE. UU."},"styleUrl":"#icon-1899-3949AB","icon-scale":1,"icon-offset":[32,64],"icon-offset-units":["pixels","insetPixels"],"icon":"images/icon-1.png","Type":"Owned","Address":"3 John Fitch Way, Trenton, NJ 08608, EE. UU."}},
{"type":"Feature","geometry":null,"properties":{"name":"495 West State Street","address":"495 West State Street, Trenton, NJ 08608, EE. UU.","description":{"@type":"html","value":"Type: Leased<br>Address: 495 West State Street, Trenton, NJ 08608, EE. UU."},"styleUrl":"#icon-1899-3949AB","icon-scale":1,"icon-offset":[32,64],"icon-offset-units":["pixels","insetPixels"],"icon":"images/icon-1.png","Type":"Leased","Address":"495 West State Street, Trenton, NJ 08608, EE. UU."}},
{"type":"Feature","geometry":null,"properties":{"name":"One State Street Square","address":"50 W State St, Trenton, NJ 08608, EE. UU.","description":{"@type":"html","value":"Type: Leased<br>Address: 50 W State St, Trenton, NJ 08608, EE. UU."},"styleUrl":"#icon-1899-3949AB","icon-scale":1,"icon-offset":[32,64],"icon-offset-units":["pixels","insetPixels"],"icon":"images/icon-1.png","Type":"Leased","Address":"50 W State St, Trenton, NJ 08608, EE. UU."}},
{"type":"Feature","geometry":null,"properties":{"name":"28 West State Street ","address":"28 West State Street, Trenton, NJ 08608, EE. UU.","description":{"@type":"html","value":"Type: Leased<br>Address: 28 West State Street, Trenton, NJ 08608, EE. UU. "},"styleUrl":"#icon-1899-3949AB","icon-scale":1,"icon-offset":[32,64],"icon-offset-units":["pixels","insetPixels"],"icon":"images/icon-1.png","Type":"Leased","Address":"28 West State Street, Trenton, NJ 08608, EE. UU. "}},
{"type":"Feature","geometry":null,"properties":{"name":"33 West State Street","address":"33 West State Street, Trenton, NJ 08608, EE. UU.","description":{"@type":"html","value":"Type: Leased<br>Address: 33 West State Street, Trenton, NJ 08608, EE. UU."},"styleUrl":"#icon-1899-3949AB","icon-scale":1,"icon-offset":[32,64],"icon-offset-units":["pixels","insetPixels"],"icon":"images/icon-1.png","Type":"Leased","Address":"33 West State Street, Trenton, NJ 08608, EE. UU."}},
{"type":"Feature","geometry":null,"properties":{"name":"125 South Warren Street","address":"125 South Warren Street, Trenton, NJ 08608, EE. UU.","description":{"@type":"html","value":"Type: Leased<br>Address: 125 South Warren Street, Trenton, NJ 08608, EE. UU."},"styleUrl":"#icon-1899-3949AB","icon-scale":1,"icon-offset":[32,64],"icon-offset-units":["pixels","insetPixels"],"icon":"images/icon-1.png","Type":"Leased","Address":"125 South Warren Street, Trenton, NJ 08608, EE. UU."}},
{"type":"Feature","geometry":null,"properties":{"name":"Capital Center","address":"50 E State St, Trenton, NJ 08608, EE. UU.","description":{"@type":"html","value":"Type: Leased<br>Address: 50 E State St, Trenton, NJ 08608, EE. UU."},"styleUrl":"#icon-1899-3949AB","icon-scale":1,"icon-offset":[32,64],"icon-offset-units":["pixels","insetPixels"],"icon":"images/icon-1.png","Type":"Leased","Address":"50 E State St, Trenton, NJ 08608, EE. UU."}},
{"type":"Feature","geometry":null,"properties":{"name":"210 South Broad Street","address":"210 South Broad Street, Trenton, NJ 08608, EE. UU.","description":{"@type":"html","value":"Type: Leased<br>Address: 210 South Broad Street, Trenton, NJ 08608, EE. UU."},"styleUrl":"#icon-1899-3949AB","icon-scale":1,"icon-offset":[32,64],"icon-offset-units":["pixels","insetPixels"],"icon":"images/icon-1.png","Type":"Leased","Address":"210 South Broad Street, Trenton, NJ 08608, EE. UU."}},
{"type":"Feature","geometry":null,"properties":{"name":"140 East Front Street","address":"140 East Front Street, Trenton, NJ 08608, EE. UU.","description":{"@type":"html","value":"Type: Leased<br>Address: 140 East Front Street, Trenton, NJ 08608, EE. UU."},"styleUrl":"#icon-1899-3949AB","icon-scale":1,"icon-offset":[32,64],"icon-offset-units":["pixels","insetPixels"],"icon":"images/icon-1.png","Type":"Leased","Address":"140 East Front Street, Trenton, NJ 08608, EE. UU."}},
{"type":"Feature","geometry":null,"properties":{"name":"Voorhees Building","address":"135 E State St, Trenton, NJ 08608, EE. UU.","description":{"@type":"html","value":"Type: Leased<br>Address: 135 E State St, Trenton, NJ 08608, EE. UU."},"styleUrl":"#icon-1899-3949AB","icon-scale":1,"icon-offset":[32,64],"icon-offset-units":["pixels","insetPixels"],"icon":"images/icon-1.png","Type":"Leased","Address":"135 E State St, Trenton, NJ 08608, EE. UU."}},
{"type":"Feature","geometry":null,"properties":{"name":"Uptown Building","address":"120 S Stockton St, Trenton, NJ 08608, EE. UU.","description":{"@type":"html","value":"Type: Leased<br>Address: 120 S Stockton St, Trenton, NJ 08608, EE. UU."},"styleUrl":"#icon-1899-3949AB","icon-scale":1,"icon-offset":[32,64],"icon-offset-units":["pixels","insetPixels"],"icon":"images/icon-1.png","Type":"Leased","Address":"120 S Stockton St, Trenton, NJ 08608, EE. UU."}},
{"type":"Feature","geometry":null,"properties":{"name":"Carrol Complex","address":"428-440 E State St, Trenton, NJ 08608, EE. UU.","description":{"@type":"html","value":"Type: Leased<br>Address: 428-440 E State St, Trenton, NJ 08608, EE. UU."},"styleUrl":"#icon-1899-3949AB","icon-scale":1,"icon-offset":[32,64],"icon-offset-units":["pixels","insetPixels"],"icon":"images/icon-1.png","Type":"Leased","Address":"428-440 E State St, Trenton, NJ 08608, EE. UU."}},
{"type":"Feature","geometry":null,"properties":{"name":"Pal Building","address":"7 Ewing St, Trenton, NJ 08608, EE. UU.","description":{"@type":"html","value":"Type: Leased<br>Address: 7 Ewing St, Trenton, NJ 08608, EE. UU."},"styleUrl":"#icon-1899-3949AB","icon-scale":1,"icon-offset":[32,64],"icon-offset-units":["pixels","insetPixels"],"icon":"images/icon-1.png","Type":"Leased","Address":"7 Ewing St, Trenton, NJ 08608, EE. UU."}},
{"type":"Feature","geometry":null,"properties":{"name":"DEP Building","address":"516 E State St, Trenton, NJ 08608, EE. UU.","description":{"@type":"html","value":"Type: Leased<br>Address: 516 E State St, Trenton, NJ 08608, EE. UU."},"styleUrl":"#icon-1899-3949AB","icon-scale":1,"icon-offset":[32,64],"icon-offset-units":["pixels","insetPixels"],"icon":"images/icon-1.png","Type":"Leased","Address":"516 E State St, Trenton, NJ 08608, EE. UU."}},
{"type":"Feature","geometry":null,"properties":{"name":"Station Plaza 5","address":"501 E State St, Trenton, NJ 08608, EE. UU.","description":{"@type":"html","value":"Type: Leased<br>Address: 501 E State St, Trenton, NJ 08608, EE. UU."},"styleUrl":"#icon-1899-3949AB","icon-scale":1,"icon-offset":[32,64],"icon-offset-units":["pixels","insetPixels"],"icon":"images/icon-1.png","Type":"Leased","Address":"501 E State St, Trenton, NJ 08608, EE. UU."}},
{"type":"Feature","geometry":null,"properties":{"name":"Station Plaza 4","address":"22 S Clinton Ave, Trenton, NJ 08608, EE. UU.","description":{"@type":"html","value":"Type: Leased<br>Address: 22 S Clinton Ave, Trenton, NJ 08608, EE. UU."},"styleUrl":"#icon-1899-3949AB","icon-scale":1,"icon-offset":[32,64],"icon-offset-units":["pixels","insetPixels"],"icon":"images/icon-1.png","Type":"Leased","Address":"22 S Clinton Ave, Trenton, NJ 08608, EE. UU."}},
{"type":"Feature","geometry":null,"properties":{"name":"Station Plaza 3","address":"50 S Clinton Ave, Trenton, NJ 08608, EE. UU.","description":{"@type":"html","value":"Type: Leased<br>Address: 50 S Clinton Ave, Trenton, NJ 08608, EE. UU. "},"styleUrl":"#icon-1899-3949AB","icon-scale":1,"icon-offset":[32,64],"icon-offset-units":["pixels","insetPixels"],"icon":"images/icon-1.png","Type":"Leased","Address":"50 S Clinton Ave, Trenton, NJ 08608, EE. UU. "}},
{"type":"Feature","geometry":null,"properties":{"name":"240 West State Street","address":"240 West State Street, Trenton, NJ 08608, EE. UU.","description":{"@type":"html","value":"Type: Leased<br>Address: 240 West State Street, Trenton, NJ 08608, EE. UU."},"styleUrl":"#icon-1899-3949AB","icon-scale":1,"icon-offset":[32,64],"icon-offset-units":["pixels","insetPixels"],"icon":"images/icon-1.png","Type":"Leased","Address":"240 West State Street, Trenton, NJ 08608, EE. UU."}},
{"type":"Feature","geometry":null,"properties":{"name":"Riverview Plaza 100","address":"Riverview Plaza 100, Trenton, NJ 08608, EE. UU.","description":{"@type":"html","value":"Type: Leased<br>Address: Riverview Plaza 100, Trenton, NJ 08608, EE. UU."},"styleUrl":"#icon-1899-3949AB","icon-scale":1,"icon-offset":[32,64],"icon-offset-units":["pixels","insetPixels"],"icon":"images/icon-1.png","Type":"Leased","Address":"Riverview Plaza 100, Trenton, NJ 08608, EE. UU."}},
{"type":"Feature","geometry":null,"properties":{"name":"Riverview Plaza 200","address":"Riverview Plaza 200, Trenton, NJ 08608, EE. UU.","description":{"@type":"html","value":"Type: Leased<br>Address: Riverview Plaza 200, Trenton, NJ 08608, EE. UU."},"styleUrl":"#icon-1899-3949AB","icon-scale":1,"icon-offset":[32,64],"icon-offset-units":["pixels","insetPixels"],"icon":"images/icon-1.png","Type":"Leased","Address":"Riverview Plaza 200, Trenton, NJ 08608, EE. UU."}},
{"type":"Feature","geometry":null,"properties":{"name":"Riverview Plaza 300","address":"Riverview Plaza 300, Trenton, NJ 08608, EE. UU.","description":{"@type":"html","value":"Type: Leased<br>Address: Riverview Plaza 300, Trenton, NJ 08608, EE. UU."},"styleUrl":"#icon-1899-3949AB","icon-scale":1,"icon-offset":[32,64],"icon-offset-units":["pixels","insetPixels"],"icon":"images/icon-1.png","Type":"Leased","Address":"Riverview Plaza 300, Trenton, NJ 08608, EE. UU."}},
{"type":"Feature","geometry":{"type":"Polygon","coordinates":[[[-74.7744155,40.2220082],[-74.7745053,40.2218065],[-74.7742371,40.2217389],[-74.7742733,40.22166],[-74.7740467,40.2216047],[-74.7740118,40.2216805],[-74.7737731,40.221616],[-74.7736819,40.2218065],[-74.7744155,40.2220082]]]},"properties":{"name":"225 West State Street\n","styleUrl":"#poly-000000-1200-77-nodesc","fill-opacity":0.30196078431372547,"fill":"#000000","stroke-opacity":1,"stroke":"#000000","stroke-width":1.2}},
{"type":"Feature","geometry":{"type":"Polygon","coordinates":[[[-74.7746147,40.2226279],[-74.7747139,40.2224272],[-74.7740246,40.2222429],[-74.7738127,40.2226812],[-74.7744605,40.2228368],[-74.7745624,40.2226146],[-74.7746147,40.2226279]]]},"properties":{"name":"240 West State Street","styleUrl":"#poly-000000-1200-77-nodesc","fill-opacity":0.30196078431372547,"fill":"#000000","stroke-opacity":1,"stroke":"#000000","stroke-width":1.2}},
{"type":"Feature","geometry":{"type":"Polygon","coordinates":[[[-74.7736201,40.2212867],[-74.7737448,40.2210276],[-74.7730139,40.22083],[-74.7728905,40.2210829],[-74.7736201,40.2212867]]]},"properties":{"name":"NJ State Museum","styleUrl":"#poly-000000-1200-77-nodesc","fill-opacity":0.30196078431372547,"fill":"#000000","stroke-opacity":1,"stroke":"#000000","stroke-width":1.2}},
{"type":"Feature","geometry":{"type":"Polygon","coordinates":[[[-74.7726776,40.2207236],[-74.7722672,40.2206069],[-74.7720392,40.2210923],[-74.7724496,40.2212049],[-74.7726776,40.2207236]]]},"properties":{"name":"NJ State Library","styleUrl":"#poly-000000-1200-77-nodesc","fill-opacity":0.30196078431372547,"fill":"#000000","stroke-opacity":1,"stroke":"#000000","stroke-width":1.2}},
{"type":"Feature","geometry":{"type":"Polygon","coordinates":[[[-74.773729,40.2214414],[-74.7741206,40.2215305],[-74.7742172,40.2215469],[-74.7742816,40.2215008],[-74.7743111,40.2213749],[-74.7742869,40.2213278],[-74.7742333,40.2213073],[-74.7741877,40.2211803],[-74.7740938,40.2211424],[-74.7740589,40.2210738],[-74.7739168,40.2210257],[-74.773729,40.2214414]]]},"properties":{"name":"NJ State Auditorium\n","styleUrl":"#poly-000000-1200-77-nodesc","fill-opacity":0.30196078431372547,"fill":"#000000","stroke-opacity":1,"stroke":"#000000","stroke-width":1.2}},
{"type":"Feature","geometry":{"type":"Polygon","coordinates":[[[-74.7707685,40.2209893],[-74.7709549,40.2206217],[-74.7712701,40.2207159],[-74.7710823,40.2210743],[-74.7712513,40.2211245],[-74.7715624,40.2205101],[-74.7713693,40.2204548],[-74.7713291,40.2205357],[-74.7710287,40.2204486],[-74.7710649,40.2203708],[-74.7708919,40.2203216],[-74.7705821,40.220934],[-74.7707685,40.2209893]]]},"properties":{"name":"NJ State House Annex\n","styleUrl":"#poly-000000-1200-77-nodesc","fill-opacity":0.30196078431372547,"fill":"#000000","stroke-opacity":1,"stroke":"#000000","stroke-width":1.2}}
]}